{"address": "lyama meiran along toll gate,Alimosho", "date": "5/1/18", "location": {"lat": 6.649112199999999, "lon": 3.2710606}}
{"address": "Ajayi Road off Yaya Abatan Ogba,Agege", "date": "5/1/18", "location": {"lat": 6.635898, "lon": 3.342576}}
{"address": "Ilasa Bls Inward,Oshodi Isolo", "date": "5/1/18", "location": {"lat": 6.5224636, "lon": 3.3350587}}
{"address": "Iyana Oworo Carwash Bus-Stop Inward,Kosofe", "date": "5/1/18", "location": {"lat": 6.555018899999999, "lon": 3.3962023}}
{"address": "Ojuoye Bls Itire Road,Mushin", "date": "5/1/18", "location": {"lat": 6.521230099999999, "lon": 3.3470892}}
{"address": "Awolowo Road Inward Towshwa Street Underbridge,Ikeja", "date": "5/2/18", "location": {"lat": 6.4420123, "lon": 3.4153161}}
{"address": "Barracks Bus-Stop along Badagry Expressway by Inward Trade Fair,Surulere", "date": "5/2/18", "location": {"lat": 6.475407, "lon": 3.0184816}}
{"address": "Alagutan Bus Stop Iyana-Ipaja,Agege", "date": "5/3/18", "location": {"lat": 6.614355, "lon": 3.2977358}}
{"address": "AlimoshoRoundabout Inward Egbeda,Alimosho", "date": "5/8/18", "location": {"lat": 6.6117811, "lon": 3.3006651}}
{"address": "Maryland Shopping Mall inward Maryland,Kosofe", "date": "5/5/18", "location": {"lat": 6.5672367, "lon": 3.3673133}}
{"address": "Taskforce Office, Bolade,Oshodi Isolo", "date": "5/1/18", "location": {"lat": 6.5648705, "lon": 3.3468695}}
{"address": "Yaya Abatan outward Pencuema closed to Excellent hotel,Agege", "date": "5/2/18", "location": {"lat": 6.6359906, "lon": 3.3390732}}
{"address": "Before Dopemu Underbridge Inward Iyana-Ipaja,Agege", "date": "4/2/18", "location": {"lat": 6.6053337, "lon": 3.2792438}}
{"address": "RTA Ishaga bus stop inward Abule-Egba,Agege", "date": "5/9/18", "location": {"lat": 6.6289187, "lon": 3.3245515}}
{"address": "Capito Road inward Ashade,Agege", "date": "5/19/18", "location": {"lat": 6.6133804, "lon": 3.3294282}}
{"address": "Ile-ewa bus stop kosofe inward mile 12,Kosofe", "date": "5/5/18", "location": {"lat": 6.606249999999999, "lon": 3.39264}}
{"address": "Dopemu before the Bridge,Agege", "date": "5/7/18", "location": {"lat": 6.6085578, "lon": 3.3094077}}
{"address": "Abattoir, Gengeto Bus Stop,Agege", "date": "5/4/18", "location": {"lat": 6.6403558, "lon": 3.3176431}}
{"address": "Abattoir, Gengeto Bus Stop,Agege", "date": "5/4/18", "location": {"lat": 6.6403558, "lon": 3.3176431}}
{"address": "Abattoir, Gengeto Bus Stop,Agege", "date": "5/4/18", "location": {"lat": 6.6403558, "lon": 3.3176431}}
{"address": "Abattoir, Gengeto Bus Stop,Agege", "date": "5/4/18", "location": {"lat": 6.6403558, "lon": 3.3176431}}
{"address": "Abattoir, Gengeto Bus Stop,Agege", "date": "5/4/18", "location": {"lat": 6.6403558, "lon": 3.3176431}}
{"address": "Mushin Bus Stop inward Alakara,Mushin", "date": "5/4/18", "location": {"lat": 6.529884999999999, "lon": 3.353477}}
{"address": "Ojoba Bridge inward Alapere CMKO Abiola Garden,Kosofe", "date": "5/4/18", "location": {"lat": 6.588236299999999, "lon": 3.3978098}}
{"address": "Ostto St. Fagba Bus Stop Abule-Egba Lagos,Ifako Ijaiye", "date": "5/4/18", "location": {"lat": 6.65764, "lon": 3.3244683}}
{"address": "Anthony Bus Stop Outward,Oshodi Isolo", "date": "5/7/18", "location": {"lat": 6.558534, "lon": 3.367001}}
{"address": "Moroco Bus Stop Landmark Firstbank,Shomolu", "date": "5/7/18", "location": {"lat": 6.527977099999999, "lon": 3.3744255}}
{"address": "Ojubode by Reel Buses,Ikorodu", "date": "5/26/18", "location": {"lat": 6.625461199999999, "lon": 3.4839356}}
{"address": "Palmgrove Bus Stop inward Maryland,Shomolu", "date": "5/23/18", "location": {"lat": 6.5409839, "lon": 3.3674149}}
{"address": "2nd Rainbow inward ,Oshodi Isolo", "date": "5/21/18", "location": {"lat": 6.4700486, "lon": 3.3226615}}
{"address": "Abagada Bus Stop Inward,Oshodi Isolo", "date": "5/21/18", "location": {"lat": 6.531492, "lon": 3.3359385}}
{"address": "Omole Bus Stop inward Ogba,Ikeja", "date": "5/21/18", "location": {"lat": 6.6394141, "lon": 3.3322259}}
{"address": "Moshalashi by Sasha Road,Alimosho", "date": "5/27/18", "location": {"lat": 6.5928574, "lon": 3.3042212}}
{"address": "Olosha Bus Stop,Mushin", "date": "5/27/18", "location": {"lat": 6.525943799999999, "lon": 3.3573559}}
{"address": "Iju Road by MEF Filling Station,Ifako Ijaiye", "date": "5/29/18", "location": {"lat": 6.63505, "lon": 3.323908}}
{"address": "Mile 12 Under Bridge,Kosofe", "date": "5/6/18", "location": {"lat": 6.6055663, "lon": 3.400014}}
{"address": "Ogolonto b/stop by BRT Lane,Ikorodu", "date": "5/22/18", "location": {"lat": 6.614609, "lon": 3.4733222}}
{"address": "Iju road after Mosque, Yaya Abatan,Ifako Ijaiye", "date": "5/3/18", "location": {"lat": 6.6528045, "lon": 3.3233198}}
{"address": "Maruwa Gardens by Otedola near filling station,Ikeja", "date": "5/5/18", "location": {"lat": 6.586806699999999, "lon": 3.3538694}}
{"address": "Agric bus/stop inward ,Ikorodu", "date": "5/9/18", "location": {"lat": 6.625461199999999, "lon": 3.4839356}}
{"address": "Agric b/stop,Ikorodu", "date": "5/21/18", "location": {"lat": 6.625461199999999, "lon": 3.4839356}}
{"address": "Ogolonto bus stop,Ikorodu", "date": "5/21/18", "location": {"lat": 6.6193374, "lon": 3.4752846}}
{"address": "Majidun inward Ogolonto,Ikorodu", "date": "5/2/18", "location": {"lat": 6.6194972, "lon": 3.4744293}}
{"address": "Majidun inward ,Ikorodu", "date": "5/2/18", "location": {"lat": 6.6195112, "lon": 3.4629867}}
{"address": "Majidun inward,Ikorodu", "date": "5/2/18", "location": {"lat": 6.6195112, "lon": 3.4629867}}
{"address": "Ologede b/stop inward ogolonto by justribe,Ikorodu", "date": "5/2/18", "location": {"lat": 6.614609, "lon": 3.4733222}}
{"address": "Oriwu Club Laspotech inward Odogunyan,Ikorodu", "date": "5/2/18", "location": {"lat": 6.632223799999999, "lon": 3.5099166}}
{"address": "Oriwu Club by Jubilee estate,Ikorodu", "date": "5/2/18", "location": {"lat": 6.632223799999999, "lon": 3.5099166}}
{"address": "Oko-afo comforter b/stop inward badagry,Badagry", "date": "5/18/18", "location": {"lat": 6.4913047, "lon": 3.0284612}}
{"address": "International Airport stop ONBR,Ikeja", "date": "5/7/18", "location": {"lat": 6.5818185, "lon": 3.3211348}}
{"address": "Brown Str. Oshodi,Oshodi Isolo", "date": "5/9/18", "location": {"lat": 6.529929, "lon": 3.2992}}
{"address": "Domino Plaza, Abule Egba,Alimosho", "date": "5/8/18", "location": {"lat": 6.6479228, "lon": 3.307782}}
{"address": "Cele bus stop inward Egbeda opp Keftue Bank,Alimosho", "date": "5/30/18", "location": {"lat": 6.6025678, "lon": 3.3090949}}
{"address": "Iyana-Ipaja Dayco filling station,Alimosho", "date": "5/29/18", "location": {"lat": 6.6082899, "lon": 3.2590231}}
{"address": "Migante Rd Oba-Akran (First Bank),Ikeja", "date": "5/29/18", "location": {"lat": 6.6082358, "lon": 3.3363616}}
{"address": "Alaba Int by St Patrick b/s,Ojo", "date": "5/28/18", "location": {"lat": 6.460594599999999, "lon": 3.1869315}}
{"address": "Mepa b/s Oshodi Apapa Express inward Celle,Surulere", "date": "5/28/18", "location": {"lat": 6.4893239, "lon": 3.3245777}}
{"address": "Mepa b/s Oshodi Apapa Express inward Celle,Surulere", "date": "5/28/18", "location": {"lat": 6.4893239, "lon": 3.3245777}}
{"address": "Mepa b/s Oshodi Apapa Express inward Celle,Surulere", "date": "5/28/18", "location": {"lat": 6.4893239, "lon": 3.3245777}}
{"address": "Mepa b/s Oshodi Apapa Express inward Celle,Surulere", "date": "5/28/18", "location": {"lat": 6.4893239, "lon": 3.3245777}}
{"address": "Mepa b/s inward Cele,Surulere", "date": "5/28/18", "location": {"lat": 6.505908000000001, "lon": 3.3236003}}
{"address": "Mepa b/s inward Cele,Surulere", "date": "5/28/18", "location": {"lat": 6.505908000000001, "lon": 3.3236003}}
{"address": "Adeniyi Jones by Harmony Estate,Ikeja", "date": "5/21/18", "location": {"lat": 6.6131329, "lon": 3.3460906}}
{"address": "Aradagun b/stop,Badagry", "date": "5/7/18", "location": {"lat": 6.439451999999999, "lon": 2.9078579}}
{"address": "Mepa b/s Oshodi Apapa Expressway inward Cele,Oshodi Isolo", "date": "5/28/18", "location": {"lat": 6.5138403, "lon": 3.3311785}}
{"address": "Ojuelegba bridge inward Redeyi,Surulere", "date": "5/28/18", "location": {"lat": 6.5099974, "lon": 3.3650011}}
{"address": "Anthony B/stop inward Ojota,Kosofe", "date": "5/28/18", "location": {"lat": 6.579534199999999, "lon": 3.3813509}}
{"address": "Oremeta, EHiS Hotel ,Ikeja", "date": "5/3/18", "location": {"lat": 6.597909899999999, "lon": 3.3653643}}
{"address": "Ketu link bridge by Demurin,Kosofe", "date": "5/18/18", "location": {"lat": 6.5926769, "lon": 3.4005257}}
{"address": "3rd Mainland Bridge inward Adewale,Shomolu", "date": "5/9/18", "location": {"lat": 6.5337425, "lon": 3.4010203}}
{"address": "Ikate R/about,Eti Osa", "date": "5/28/18", "location": {"lat": 6.4329553, "lon": 3.4821678}}
{"address": "Eko Akete,Lagos Island", "date": "5/6/18", "location": {"lat": 6.451797399999999, "lon": 3.3942926}}
{"address": "Alapere by The Apertabe Church,Kosofe", "date": "5/30/18", "location": {"lat": 6.588236299999999, "lon": 3.3978098}}
{"address": "Alapere bustop inward Ketu,Kosofe", "date": "5/31/18", "location": {"lat": 6.588779199999999, "lon": 3.3994129}}
{"address": "Pen Cinema b/stop Agege LG office,Agege", "date": "5/31/18", "location": {"lat": 6.6294287, "lon": 3.3261754}}
{"address": "Agidingbi nad by Mega Chicken,Ikeja", "date": "5/27/18", "location": {"lat": 6.6261427, "lon": 3.3535281}}
{"address": "Jakande by Ologolo B/Stop,Ibeju Lekki", "date": "5/26/18", "location": {"lat": 6.433476199999999, "lon": 3.5136414}}
{"address": "Lakowe Bus-stop,Ibeju Lekki", "date": "5/25/18", "location": {"lat": 6.4729062, "lon": 3.7223789}}
{"address": "Lakowe junction Epe expressway,Ibeju Lekki", "date": "5/20/18", "location": {"lat": 6.4732354, "lon": 3.7296398}}
{"address": "Pen Cinema Abbatior before police station,Ifako Ijaiye", "date": "5/26/18", "location": {"lat": 6.6478419, "lon": 3.3147939}}
{"address": "Oko-Oba Rd by carwash inward Abaten ,Agege", "date": "5/26/18", "location": {"lat": 6.638643999999999, "lon": 3.312819}}
{"address": "Olajide Street, Berger,Ikeja", "date": "5/24/18", "location": {"lat": 6.651132, "lon": 3.3763369}}
{"address": "7up Pedestrian Bridge,Ikeja", "date": "3/1/18", "location": {"lat": 36.1620415, "lon": -86.77221019999999}}
{"address": "7up Pedestrian Bridge,Ikeja", "date": "4/1/18", "location": {"lat": 36.1620415, "lon": -86.77221019999999}}
{"address": "Iponri Estate,Surulere", "date": "4/11/18", "location": {"lat": 6.4868039, "lon": 3.3624294}}
{"address": "Otto Bustop inward Oyingbo,Lagos Mainland", "date": "4/13/18", "location": {"lat": 6.482167, "lon": 3.383145}}
{"address": "Osborne road, Dolphin Estate,Eti Osa", "date": "4/7/18", "location": {"lat": 6.462900599999999, "lon": 3.418825}}
{"address": "Inside Shoprite Mall,Eti Osa", "date": "4/11/18", "location": {"lat": 6.4384522, "lon": 3.5088246}}
{"address": "Ozomba Mbadiwe Road,Eti Osa", "date": "4/7/18", "location": {"lat": 6.439996799999999, "lon": 3.4323141}}
{"address": "Airport road by mobile filling station,Ikeja", "date": "4/4/18", "location": {"lat": 6.6207481, "lon": 3.3529569}}
{"address": "Ilasa Itire Rd,Mushin", "date": "4/4/18", "location": {"lat": 6.511804, "lon": 3.3357373}}
{"address": "Ilasamaga bustop inward Oshodi,Mushin", "date": "4/4/18", "location": {"lat": 6.5224636, "lon": 3.3350587}}
{"address": "Ilasa bstop,Apapa", "date": "4/4/18", "location": {"lat": 6.5224636, "lon": 3.3350587}}
{"address": "Pako Bus Stop, Ayobo Ipaja road,Oshodi Isolo", "date": "4/2/18", "location": {"lat": 6.531492, "lon": 3.3359385}}
{"address": "Gbadebo str Ojota B/Stop,Ikeja", "date": "4/4/18", "location": {"lat": 6.586719899999999, "lon": 3.3805451}}
{"address": "Ojodu Secondary School,Ikeja", "date": "4/2/18", "location": {"lat": 6.601838, "lon": 3.3514863}}
{"address": "Ojodu Secondary School,Ikeja", "date": "4/2/18", "location": {"lat": 6.601838, "lon": 3.3514863}}
{"address": "Anthony B/Stop inward Palm,Shomolu", "date": "4/6/18", "location": {"lat": 6.5409839, "lon": 3.3674149}}
{"address": "Mason New Bridge inward Meiran,Alimosho", "date": "4/7/18", "location": {"lat": 6.649112199999999, "lon": 3.2710606}}
{"address": "Ishaga Road Statwen Bustop inward Alambutu,Agege", "date": "4/7/18", "location": {"lat": 6.6409144, "lon": 3.3235571}}
{"address": "Abattior infront of police station,Agege", "date": "4/1/18", "location": {"lat": 6.544385500000001, "lon": 3.3563416}}
{"address": "Alapere R/About outward Ketu,Kosofe", "date": "4/18/18", "location": {"lat": 6.588236299999999, "lon": 3.3978098}}
{"address": "Kola b/stop inward Ijaiye Agbado,Ifako Ijaiye", "date": "4/18/18", "location": {"lat": 6.6854, "lon": 3.300509}}
{"address": "Akilo Road Egba,Ikeja", "date": "4/17/18", "location": {"lat": 6.6213657, "lon": 3.3360238}}
{"address": "Abiola garden inward ojodu,Ikeja", "date": "4/18/18", "location": {"lat": 6.621069100000001, "lon": 3.3609354}}
{"address": "Abiola garden inward Ojudu,Ikeja", "date": "4/18/18", "location": {"lat": 6.621069100000001, "lon": 3.3609354}}
{"address": "Olopomeji inward 3rd mainland bridge,Kosofe", "date": "4/8/18", "location": {"lat": 6.5381697, "lon": 3.400003}}
{"address": "Agindingbi by Daily Times B/Stop,Ikeja", "date": "4/1/18", "location": {"lat": 6.620054, "lon": 3.352793}}
{"address": "Zenith bank CMD road Irosi,Kosofe", "date": "4/19/18", "location": {"lat": 6.6000419, "lon": 3.3787626}}
{"address": "Ojodu Berger Bomat bus stop birdmart Domino Plaza,Ikeja", "date": "4/19/18", "location": {"lat": 6.639772199999999, "lon": 3.367996}}
{"address": "Tofell Filling Station OPN Magodo inward Ojota,Kosofe", "date": "4/2/18", "location": {"lat": 6.6178643, "lon": 3.4000616}}
{"address": "Iyanapaja pleasure b/stop,Alimosho", "date": "4/12/18", "location": {"lat": 6.6052795, "lon": 3.278803}}
{"address": "Ikeja along underbridge,Ikeja", "date": "4/12/18", "location": {"lat": 6.59408, "lon": 3.33625}}
{"address": "Ijaiye b/stop inward bango,Ifako Ijaiye", "date": "4/14/18", "location": {"lat": 6.6827149, "lon": 3.3187418}}
{"address": "AIT Inward Amikanle Agbado close to bondpast/swist filling station,Ifako Ijaiye", "date": "4/2/18", "location": {"lat": 6.6547512, "lon": 3.2538}}
{"address": "7up/ grand square,Ikeja", "date": "4/21/18", "location": {"lat": 6.609397299999999, "lon": 3.368881}}
{"address": "Chinese Town inward Alapere,Kosofe", "date": "4/15/18", "location": {"lat": 6.588236299999999, "lon": 3.3978098}}
{"address": "PPL bus stop inward Badagry,Ojo", "date": "4/22/18", "location": {"lat": 6.460008999999999, "lon": 3.228578}}
{"address": "Iyana-Ipaja u-bridge inward ile-eso,Agege", "date": "4/28/18", "location": {"lat": 6.6053337, "lon": 3.2792438}}
{"address": "Iyana-Ishashi b/s inward Badagry,Ojo", "date": "4/14/18", "location": {"lat": 6.482819999999999, "lon": 3.17227}}
{"address": "7 & 8 Junction Airport Rd,Ikeja", "date": "4/24/18", "location": {"lat": 6.550827399999999, "lon": 3.3318615}}
{"address": "Brown Junction,Oshodi Isolo", "date": "4/23/18", "location": {"lat": 6.529929, "lon": 3.2992}}
{"address": "Anthony B/Stop Ikorodu Road,Ikeja", "date": "4/19/18", "location": {"lat": 6.558534, "lon": 3.367001}}
{"address": "Infront of Mobil f/station gate, Magodo,Ikeja", "date": "4/23/18", "location": {"lat": 6.6178643, "lon": 3.4000616}}
{"address": "Palmgrove B/S inward Mangala,Shomolu", "date": "4/24/18", "location": {"lat": 6.5409839, "lon": 3.3674149}}
{"address": "Mobokyi Bank Anthony,Ikeja", "date": "4/24/18", "location": {"lat": 6.591397, "lon": 3.3489923}}
{"address": "Lasu Gate Inward Iyana-Oba,Ojo", "date": "4/28/18", "location": {"lat": 6.474008, "lon": 3.2021732}}
{"address": "Oshodi Pedestrian Bridge,Oshodi Isolo", "date": "4/25/18", "location": {"lat": 6.5214902, "lon": 3.3349463}}
{"address": "Tipper Garage,Kosofe", "date": "4/26/18", "location": {"lat": 6.589321099999999, "lon": 3.3774339}}
{"address": "Mobil filling station after toll gate,Ikeja", "date": "4/23/18", "location": {"lat": 6.6207481, "lon": 3.3529569}}
{"address": "Abule Oja bstop coming from yaba inward bariga unilag road, vitafoam office,Shomolu", "date": "4/28/18", "location": {"lat": 6.5151087, "lon": 3.3886033}}
{"address": "Itamaga Sawmile,Ikorodu", "date": "4/9/18", "location": {"lat": 6.6321593, "lon": 3.5353721}}
{"address": "Itoikin Rd Adamo busstop,Ikorodu", "date": "4/10/18", "location": {"lat": 6.6616952, "lon": 3.5919549}}
{"address": "Majidun close to Obgolonto before bridge inward Ketu,Ikorodu", "date": "4/21/18", "location": {"lat": 6.625461199999999, "lon": 3.4839356}}
{"address": "Barracks inward Ojuelegba,Lagos Mainland", "date": "4/24/18", "location": {"lat": 6.506448, "lon": 3.363545}}
{"address": "Stadium b/stop inward Barracks,Surulere", "date": "4/25/18", "location": {"lat": 6.505999999999999, "lon": 3.363849}}
{"address": "Bode Thomas,Surulere", "date": "4/7/18", "location": {"lat": 6.489160099999999, "lon": 3.3587262}}
{"address": "Marine bridge inward Apapa outward Ajegunle boundary,Apapa", "date": "4/8/18", "location": {"lat": 6.4385055, "lon": 3.3869337}}
{"address": "Chisco R/about,Eti Osa", "date": "4/15/18", "location": {"lat": 6.434566999999999, "lon": 3.492087}}
{"address": "Ikota opp. Zenith Bank,Eti Osa", "date": "4/19/18", "location": {"lat": 6.431696, "lon": 3.424747}}
{"address": "Itamaga Rd by Ota-Ona Grammer,Ikorodu", "date": "4/23/18", "location": {"lat": 6.6321593, "lon": 3.5353721}}
{"address": "Itamaga,Ikorodu", "date": "3/24/18", "location": {"lat": 6.6321593, "lon": 3.5353721}}
{"address": "Kasoleri inward Itamaga,Ikorodu", "date": "4/16/18", "location": {"lat": 6.6321593, "lon": 3.5353721}}
{"address": "Ajegunle, Ikorodu Road,Ikorodu", "date": "4/28/18", "location": {"lat": 6.6304588, "lon": 3.519452}}
{"address": "Irawu busstop; Ikorodu,Ikorodu", "date": "4/29/18", "location": {"lat": 6.625461199999999, "lon": 3.4839356}}
{"address": "Agungi under pedestrian bridge,Eti Osa", "date": "3/22/18", "location": {"lat": 6.4471696, "lon": 3.5178536}}
{"address": "Lekki R/about Lekki Phase 1,Eti Osa", "date": "4/10/18", "location": {"lat": 6.437399, "lon": 3.457824}}
{"address": "Ikota First Gate,Eti Osa", "date": "4/14/18", "location": {"lat": 6.462969999999999, "lon": 3.5561}}
{"address": "Obalende inward Iyana - Oworo,Lagos Island", "date": "4/12/18", "location": {"lat": 6.555018899999999, "lon": 3.3962023}}
{"address": "Chisco Roundabout,Eti Osa", "date": "4/15/18", "location": {"lat": 6.434566999999999, "lon": 3.492087}}
{"address": "Chevron RIA ,Eti Osa", "date": "4/18/18", "location": {"lat": 6.451070400000001, "lon": 3.5306402}}
{"address": "Borny Camp,Lagos Island", "date": "4/15/18", "location": {"lat": 6.4361901, "lon": 3.406208}}
{"address": "Borny Camp,Lagos Mainland", "date": "4/15/18", "location": {"lat": 6.4361901, "lon": 3.406208}}
{"address": "Ojingbo opp Mainland Hotel inward Iddo,Lagos Mainland", "date": "4/15/18", "location": {"lat": 6.479002599999999, "lon": 3.3832579}}
{"address": "Adekunle inward 3rd Mainland Bridge,Lagos Mainland", "date": "4/13/18", "location": {"lat": 6.4961142, "lon": 3.4001874}}
{"address": "Shoprite Mall,Eti Osa", "date": "4/11/18", "location": {"lat": 6.4384522, "lon": 3.5088246}}
{"address": "Inside Shoprite Mall,Ikeja", "date": "4/11/18", "location": {"lat": 6.6137843, "lon": 3.3580145}}
{"address": "ALbanti barracks inward Ojuelegba,Surulere", "date": "4/13/18", "location": {"lat": 6.505999999999999, "lon": 3.363849}}
{"address": "Osborne inward 3rd Mainland Bridge,Lagos Island", "date": "4/15/18", "location": {"lat": 6.462360899999999, "lon": 3.395043}}
{"address": "Adekunle ascending 3rd Mainland,Lagos Mainland", "date": "4/15/18", "location": {"lat": 6.4961142, "lon": 3.4001874}}
{"address": "Ikate Roundabout of Freedom Way inward Embassy,Eti Osa", "date": "4/11/18", "location": {"lat": 6.4329553, "lon": 3.4821678}}
{"address": "Front of Badagry Grammar School,Badagry", "date": "4/2/18", "location": {"lat": 6.4204878, "lon": 2.8870999}}
{"address": "Cele Bus Stop,Agege", "date": "4/1/18", "location": {"lat": 6.5396036, "lon": 3.2843757}}
{"address": "Ile-Epo B/stop by the side of the new bridge inward Abule-Egba,Shomolu", "date": "4/13/18", "location": {"lat": 6.6350513, "lon": 3.3018154}}
{"address": "Adewale Aderibigbe off Ikorodu rd Maryland,Ikeja", "date": "4/13/18", "location": {"lat": 6.5736623, "lon": 3.3689103}}
{"address": "Adewale Aderibigbe off Ikorodu Rd Maryland,Ikeja", "date": "4/13/18", "location": {"lat": 6.5736623, "lon": 3.3689103}}
{"address": "Okun Ajah,Eti Osa", "date": "3/28/18", "location": {"lat": 6.4264195, "lon": 3.6274214}}
{"address": "Admirality toll gate,Eti Osa", "date": "3/31/18", "location": {"lat": 6.4359204, "lon": 3.4472259}}
{"address": "Ibeju close to Eleko junction,Ibeju Lekki", "date": "4/1/18", "location": {"lat": 6.4742278, "lon": 3.8423713}}
{"address": "Bogije b/s,Ibeju Lekki", "date": "4/4/18", "location": {"lat": 6.4809017, "lon": 3.766225}}
{"address": "Bogije b/s,Ibeju Lekki", "date": "4/4/18", "location": {"lat": 6.4809017, "lon": 3.766225}}
{"address": "Ibeju close to Eleko,Ibeju Lekki", "date": "4/1/18", "location": {"lat": 6.4386578, "lon": 3.8548356}}
{"address": "Ibeju close to Eleko junction,Ibeju Lekki", "date": "4/1/18", "location": {"lat": 6.4742278, "lon": 3.8423713}}
{"address": "Ibeju close to Eleko junction,Ibeju Lekki", "date": "4/1/18", "location": {"lat": 6.4742278, "lon": 3.8423713}}
{"address": "Ojuelegba Abati Barack inward Stadium,Surulere", "date": "4/9/18", "location": {"lat": 6.4972384, "lon": 3.3650049}}
{"address": "Town Planning B/stop ,Ikeja", "date": "4/9/18", "location": {"lat": 6.5569187, "lon": 3.3595019}}
{"address": "Ganifawemi Park Ojota,Kosofe", "date": "4/3/18", "location": {"lat": 6.579534199999999, "lon": 3.3813509}}
{"address": "Agidigbin by Mega Chicken,Ikeja", "date": "4/2/18", "location": {"lat": 6.6261427, "lon": 3.3535281}}
{"address": "Ijesha bus stop inward Oshodi,Surulere", "date": "4/13/18", "location": {"lat": 6.493300700000001, "lon": 3.3226586}}
{"address": "Taskforce Office Oshodi,Oshodi Isolo", "date": "3/29/18", "location": {"lat": 6.5648705, "lon": 3.3468695}}
{"address": "Opp. Guiness, Oba-Akran Road,Ikeja", "date": "3/29/18", "location": {"lat": 6.6136117, "lon": 3.3359599}}
{"address": "Excellence Hotel inward Egba Ogunnusi,Ikeja", "date": "3/29/18", "location": {"lat": 6.634811699999999, "lon": 3.3453614}}
{"address": "Molashi Busstop inward Estrada,Alimosho", "date": "4/4/18", "location": {"lat": 6.6116552, "lon": 3.295954}}
{"address": "Oshodi-Apapa Expressway Ambulance Point Landmark Itire,Oshodi Isolo", "date": "4/21/18", "location": {"lat": 6.512091, "lon": 3.3284246}}
{"address": "Akin Adesola VI,Lagos Island", "date": "4/24/18", "location": {"lat": 6.4424442, "lon": 3.4266846}}
{"address": "Ilaleko road by nam market inward Iyana Ido,Mushin", "date": "4/12/18", "location": {"lat": 6.531492, "lon": 3.3359385}}
{"address": "AMJE b/stop inward OTA,Ifako Ijaiye", "date": "4/12/18", "location": {"lat": 6.6852621, "lon": 3.2667899}}
{"address": "Odo eran along igando road inward Isen,Alimosho", "date": "4/12/18", "location": {"lat": 6.5741909, "lon": 3.256588}}
{"address": "Charity bus-stop inward Oshodi,Oshodi Isolo", "date": "4/9/18", "location": {"lat": 6.551067199999999, "lon": 3.3401388}}
{"address": "Ijegun Isheri Junction inward Ijegun,Alimosho", "date": "4/19/18", "location": {"lat": 6.5359645, "lon": 3.220395}}
{"address": "Akowonjo Roundabout ,Alimosho", "date": "4/24/18", "location": {"lat": 6.599887, "lon": 3.2995363}}
{"address": "Iddo bus stop,Lagos Mainland", "date": "4/24/18", "location": {"lat": 6.471272, "lon": 3.382845}}
{"address": "Iponri inward Stadium ,Surulere", "date": "4/2/18", "location": {"lat": 6.4851769, "lon": 3.3632507}}
{"address": "LASU Igando road, Olorunjemi b/stop,Alimosho", "date": "4/2/18", "location": {"lat": 6.5508562, "lon": 3.2400398}}
{"address": "Coker gate, orisunbare road Shasha,Oshodi Isolo", "date": "4/19/18", "location": {"lat": 6.5736484, "lon": 3.3062439}}
{"address": "Powerline bus stop inward Igando,Alimosho", "date": "4/3/18", "location": {"lat": 6.5768818, "lon": 3.2729038}}
{"address": "Bade b/s by NNPC Isolo rd outward Ikotun,Oshodi Isolo", "date": "4/26/18", "location": {"lat": 6.5316323, "lon": 3.3360842}}
{"address": "Lawanson road by cele b/s Iyana Itire,Surulere", "date": "4/10/18", "location": {"lat": 6.511670199999999, "lon": 3.342303}}
{"address": "Jakande 1st gate inward Ajah,Eti Osa", "date": "4/17/18", "location": {"lat": 6.463470699999999, "lon": 3.555718}}
{"address": "1st toll gate inward Jakande Lekki,Eti Osa", "date": "4/21/18", "location": {"lat": 6.4359204, "lon": 3.4472259}}
{"address": "Lekki Roundabout,Eti Osa", "date": "4/20/18", "location": {"lat": 6.436712099999999, "lon": 3.5080826}}
{"address": "Lekki Epe Xpress Way Abraham Adesanya b/stop,Eti Osa", "date": "4/19/18", "location": {"lat": 6.449143599999999, "lon": 3.5498178}}
{"address": "Chevron RTA,Eti Osa", "date": "4/21/18", "location": {"lat": 6.451070400000001, "lon": 3.5306402}}
{"address": "Dopemu underbridge inw Oshodi,Alimosho", "date": "4/27/18", "location": {"lat": 6.6085578, "lon": 3.3094077}}
{"address": "Itedo lane end of Admiralty Estate,Eti Osa", "date": "3/29/18", "location": {"lat": 6.4375018, "lon": 3.4854591}}
{"address": "1st Toll Gate,Eti Osa", "date": "3/29/18", "location": {"lat": 6.4359204, "lon": 3.4472259}}
{"address": "1st Toll Gate,Eti Osa", "date": "3/29/18", "location": {"lat": 6.4359204, "lon": 3.4472259}}
{"address": "Ojuelegba, opp Abati Barracks ,Surulere", "date": "3/10/18", "location": {"lat": 6.506448, "lon": 3.363545}}
{"address": "National Art Theatre Inward Orile,Surulere", "date": "3/9/18", "location": {"lat": 6.476472999999999, "lon": 3.369542}}
{"address": "Spencer bus stop,Lagos Mainland", "date": "3/3/18", "location": {"lat": 6.5020291, "lon": 3.377223}}
{"address": "Ikota 2nd gate,Eti Osa", "date": "3/23/18", "location": {"lat": 6.4441397, "lon": 3.54211}}
{"address": "Jakande roundabout under bridge,Eti Osa", "date": "3/10/18", "location": {"lat": 6.463470699999999, "lon": 3.555718}}
{"address": "Ikota b/stop inward Ajah,Eti Osa", "date": "3/10/18", "location": {"lat": 6.4519414, "lon": 3.5549408}}
{"address": "Ilasam inward Jakande,Eti Osa", "date": "3/13/18", "location": {"lat": 6.463470699999999, "lon": 3.555718}}
{"address": "Civic Centre along Lekki by traffic light,Eti Osa", "date": "3/25/18", "location": {"lat": 6.4498845, "lon": 3.548681}}
{"address": "Civic Centre along Lekki by traffic light,Eti Osa", "date": "3/25/18", "location": {"lat": 6.4498845, "lon": 3.548681}}
{"address": "Agungi b/stop,Eti Osa", "date": "3/13/18", "location": {"lat": 6.4378049, "lon": 3.5166148}}
{"address": "Admiralty Lekki Express Orile PLaza,Eti Osa", "date": "3/25/18", "location": {"lat": 6.447506700000001, "lon": 3.4670381}}
{"address": "Ikate b/s before bridge inward Lekki,Eti Osa", "date": "3/26/18", "location": {"lat": 6.4329553, "lon": 3.4821678}}
{"address": "Lekki tollgate,Eti Osa", "date": "3/11/18", "location": {"lat": 6.435820199999999, "lon": 3.4471546}}
{"address": "Majidun b/stop, Ikorodu,Ikorodu", "date": "3/2/18", "location": {"lat": 6.625461199999999, "lon": 3.4839356}}
{"address": "Hotel b/stop Omole Ojodu Berger,Ikeja", "date": "3/11/18", "location": {"lat": 6.6376368, "lon": 3.3558156}}
{"address": "Apongbon inward Ojuelegba,Lagos Island", "date": "3/1/18", "location": {"lat": 6.4622446, "lon": 3.381494}}
{"address": "Apongbon inward Ojuelegba,Lagos Island", "date": "3/1/18", "location": {"lat": 6.4622446, "lon": 3.381494}}
{"address": "Oko-Afo inward BDG,Badagry", "date": "3/30/18", "location": {"lat": 6.4913047, "lon": 3.0284612}}
{"address": "Broad Str by Briscoe Busstop inward Apongbon,Lagos Island", "date": "3/4/18", "location": {"lat": 6.452433699999999, "lon": 3.3903842}}
{"address": "Broad St BY,Lagos Island", "date": "3/4/18", "location": {"lat": 6.452433699999999, "lon": 3.3903842}}
{"address": "Broad Street By,Lagos Island", "date": "3/4/18", "location": {"lat": 6.452433699999999, "lon": 3.3903842}}
{"address": "Broad Str by Briscoe Bus-stop inward Apongbon,Lagos Island", "date": "5/4/18", "location": {"lat": 6.452433699999999, "lon": 3.3903842}}
{"address": "3rd Mainland Bridge inward Iyana-Owo by Unilag Waterfront,Lagos Mainland", "date": "3/3/18", "location": {"lat": 6.5151087, "lon": 3.3886033}}
{"address": "Owode Elede,Kosofe", "date": "3/4/18", "location": {"lat": 6.601587599999999, "lon": 3.4040424}}
{"address": "Mile 12 underbridge inward Ikorodu,Kosofe", "date": "3/8/18", "location": {"lat": 6.6055663, "lon": 3.400014}}
{"address": "Surgical Emergency Lasuth,Ikeja", "date": "3/3/18", "location": {"lat": 6.5893763, "lon": 3.343083}}
{"address": "Ogolonto by BRT lane inward Ikorodu,Ikorodu", "date": "3/4/18", "location": {"lat": 6.614609, "lon": 3.4733222}}
{"address": "Ketu b/stop by Lamata,Kosofe", "date": "3/4/18", "location": {"lat": 6.597497, "lon": 3.386115}}
{"address": "Iyana Oworo inward Bariga on top of the  bridge berger,Shomolu", "date": "3/2/18", "location": {"lat": 6.555018899999999, "lon": 3.3962023}}
{"address": "Ogudu inward Alapere,Kosofe", "date": "3/1/18", "location": {"lat": 6.588236299999999, "lon": 3.3978098}}
{"address": "T junction,Epe", "date": "12/21/17", "location": {"lat": 6.5864894, "lon": 3.9514578}}
{"address": "Gbagada express inward Oshodi under the Pedestrian Bridge,Shomolu", "date": "2/19/18", "location": {"lat": 6.551235900000001, "lon": 3.3917632}}
{"address": "Trem b/s, Gbagada inward Oshodi,Shomolu", "date": "2/19/18", "location": {"lat": 6.5504536, "lon": 3.3932235}}
{"address": "Taskforce Office, Oshodi,Oshodi Isolo", "date": "2/21/18", "location": {"lat": 6.5648705, "lon": 3.3468695}}
{"address": "Pedro rd inward Ladilak,Shomolu", "date": "2/2/18", "location": {"lat": 6.545005, "lon": 3.3800673}}
{"address": "Adekunle Fajuyi way P.W.S. by Railway Line,Ikeja", "date": "2/21/18", "location": {"lat": 6.5705503, "lon": 3.3536195}}
{"address": "Mile 12 Diamond Bank,Kosofe", "date": "2/21/18", "location": {"lat": 6.6079455, "lon": 3.3945695}}
{"address": "Itowolo,Ikorodu", "date": "2/25/18", "location": {"lat": 6.612437000000001, "lon": 3.441499}}
{"address": "Toyota Underbridge inward Mile 12,Kosofe", "date": "2/15/18", "location": {"lat": 6.6055663, "lon": 3.400014}}
{"address": "Stadium Underbridge,Surulere", "date": "2/12/18", "location": {"lat": 6.4972384, "lon": 3.3650049}}
{"address": "Unilag waterfront from Iyana-Oworo into Lagos,Lagos Mainland", "date": "3/1/18", "location": {"lat": 6.5151087, "lon": 3.3886033}}
{"address": "Apongbon Bridge,Lagos Island", "date": "2/26/18", "location": {"lat": 6.4595389, "lon": 3.3826433}}
{"address": "Ogudu Ori-oke,Kosofe", "date": "2/28/18", "location": {"lat": 6.5773987, "lon": 3.4015814}}
{"address": "Fadeyi b/stop inward Jibowu,Shomolu", "date": "2/23/18", "location": {"lat": 6.5193721, "lon": 3.3696199}}
{"address": "Abule Ado opposite Oando Filling Station ,Amuwo Odofin", "date": "2/18/18", "location": {"lat": 6.456275, "lon": 3.2562178}}
{"address": "Orelope Inward Egbeda,Alimosho", "date": "2/18/18", "location": {"lat": 6.5923185, "lon": 3.2909325}}
{"address": "Olusanya Street, off Oniwaya ,Agege", "date": "2/19/18", "location": {"lat": 6.620867199999999, "lon": 3.3216856}}
{"address": "Cele Express, Cele bus stop inward Ojota,Surulere", "date": "2/20/18", "location": {"lat": 6.505908000000001, "lon": 3.3236003}}
{"address": "Arigbanla b/stop close to NYSC Camp Iyana Ipaja,Agege", "date": "2/24/18", "location": {"lat": 6.6249472, "lon": 3.3032145}}
{"address": "Liasu road inward Canal outward Ile-Ife,Alimosho", "date": "2/24/18", "location": {"lat": 6.5564567, "lon": 3.2800838}}
{"address": "Palmgrove b/stop,Shomolu", "date": "2/20/18", "location": {"lat": 6.5409839, "lon": 3.3674149}}
{"address": "Muritala Bus-stop, Jagunmolu st. Bariga,Shomolu", "date": "2/21/18", "location": {"lat": 6.543013999999999, "lon": 3.393568}}
{"address": "Bolade Safety Arena ,Oshodi Isolo", "date": "2/23/18", "location": {"lat": 6.5643389, "lon": 3.3472453}}
{"address": "PWD b/stop inward,Ikeja", "date": "2/24/18", "location": {"lat": 6.5829306, "lon": 3.3403158}}
{"address": "PWD b/stop inward,Ikeja", "date": "2/24/18", "location": {"lat": 6.5829306, "lon": 3.3403158}}
{"address": "Palmgrove b/stop inward Fadeyi,Shomolu", "date": "2/7/18", "location": {"lat": 6.5409839, "lon": 3.3674149}}
{"address": "Irawo under bridge inward mile 12,Kosofe", "date": "2/6/18", "location": {"lat": 6.6055663, "lon": 3.400014}}
{"address": "Sabo road by Sawmill,Lagos Mainland", "date": "2/5/18", "location": {"lat": 6.5059306, "lon": 3.3778238}}
{"address": "Mazamaza inward Mile 2,Amuwo Odofin", "date": "2/6/18", "location": {"lat": 6.4599636, "lon": 3.303827}}
{"address": "Mosan Okunola inward Estate Ipaja BH Abesan,Alimosho", "date": "2/8/18", "location": {"lat": 6.6116684, "lon": 3.2892599}}
{"address": "Sokunbi Street,Mushin", "date": "2/23/18", "location": {"lat": 6.5353107, "lon": 3.3570449}}
{"address": "Inward Adamo ,Ikorodu", "date": "2/18/18", "location": {"lat": 6.6194131, "lon": 3.5104537}}
{"address": "Owode Onirin by Gedco College Inward,Ikorodu", "date": "2/16/18", "location": {"lat": 6.610871599999999, "lon": 3.411482}}
{"address": "Ilasa bus stop inward Mile 2,Oshodi Isolo", "date": "2/17/18", "location": {"lat": 6.531492, "lon": 3.3359385}}
{"address": "Tipper garage inward Ketu,Kosofe", "date": "2/19/18", "location": {"lat": 6.595771699999999, "lon": 3.3849817}}
{"address": "Ketu Tipper garage,Kosofe", "date": "2/19/18", "location": {"lat": 6.5960309, "lon": 3.3854333}}
{"address": "Elf b/stop inward Jakande,Eti Osa", "date": "2/13/18", "location": {"lat": 6.463470699999999, "lon": 3.555718}}
{"address": "Iyana-Oworo Bus Stop,Shomolu", "date": "2/20/18", "location": {"lat": 6.545401999999999, "lon": 3.398535}}
{"address": "T Junction ,Epe", "date": "12/2/17", "location": {"lat": 6.5864894, "lon": 3.9514578}}
{"address": "Tipper garage inward Ketu,Kosofe", "date": "2/19/18", "location": {"lat": 6.595771699999999, "lon": 3.3849817}}
{"address": "Tipper Garage inward Ketu,Kosofe", "date": "2/19/18", "location": {"lat": 6.595771699999999, "lon": 3.3849817}}
{"address": "Ketu Tipper Garage,Kosofe", "date": "2/19/18", "location": {"lat": 6.5960309, "lon": 3.3854333}}
{"address": "Modupe eoundabout by Ajayi Road opp Excellent Hotel Igba,Ikeja", "date": "2/14/18", "location": {"lat": 6.6407481, "lon": 3.3433403}}
{"address": "Otedola,Ikeja", "date": "2/21/18", "location": {"lat": 6.586806699999999, "lon": 3.3538694}}
{"address": "New Garage jota inward Maryland,Kosofe", "date": "2/19/18", "location": {"lat": 6.5814948, "lon": 3.3763375}}
{"address": "Ladega inward Itupate,Ikorodu", "date": "2/14/18", "location": {"lat": 6.6156866, "lon": 3.5043409}}
{"address": "Ketu Tipper Garage,Kosofe", "date": "2/19/18", "location": {"lat": 6.5960309, "lon": 3.3854333}}
{"address": "Motorway,Ikeja", "date": "2/19/18", "location": {"lat": 6.5964432, "lon": 3.3477542}}
{"address": "Ojota inward 7up by Ojota b/stop,Kosofe", "date": "2/19/18", "location": {"lat": 6.579534199999999, "lon": 3.3813509}}
{"address": "New Garage inward Ojota,Kosofe", "date": "2/13/18", "location": {"lat": 6.5814948, "lon": 3.3763375}}
{"address": "Ogudu Gbagada,Shomolu", "date": "2/12/18", "location": {"lat": 6.5785106, "lon": 3.387836}}
{"address": "Ogudu inward Gbagada,Shomolu", "date": "2/12/18", "location": {"lat": 6.5785106, "lon": 3.387836}}
{"address": "Ogudu inward Gbagada,Shomolu", "date": "2/12/18", "location": {"lat": 6.5785106, "lon": 3.387836}}
{"address": "Neca House,Ikeja", "date": "2/24/18", "location": {"lat": 6.623709, "lon": 3.358055}}
{"address": "Majidun B/stop inward,Ikorodu", "date": "2/24/18", "location": {"lat": 6.6195112, "lon": 3.4629867}}
{"address": "Majidun nB/stop inward,Ikorodu", "date": "2/24/18", "location": {"lat": 6.6195112, "lon": 3.4629867}}
{"address": "Federal road, Bayeku,Ikorodu", "date": "2/24/18", "location": {"lat": 6.5462974, "lon": 3.5433081}}
{"address": "Fagba opposite Providence Sch,Agege", "date": "2/24/18", "location": {"lat": 6.6559405, "lon": 3.3228579}}
{"address": "Mile 2 Underbridge,Amuwo Odofin", "date": "2/17/18", "location": {"lat": 6.462391999999999, "lon": 3.315932}}
{"address": "Ikeja Along inward RCC 21K,Ikeja", "date": "2/24/18", "location": {"lat": 6.59408, "lon": 3.33625}}
{"address": "Ikeja Along inward RCC 21K,Ikeja", "date": "2/24/18", "location": {"lat": 6.59408, "lon": 3.33625}}
{"address": "Ikeja Along inward RCC 21K,Ikeja", "date": "2/24/18", "location": {"lat": 6.59408, "lon": 3.33625}}
{"address": "Eleshin busstop - Ijede,Ikorodu", "date": "2/18/18", "location": {"lat": 6.6143166, "lon": 3.5600529}}
{"address": "Ekoro Bus-Stop inward Abule Egba,Alimosho", "date": "2/24/18", "location": {"lat": 6.6432921, "lon": 3.2884309}}
{"address": "Ojota Before the bridge inward Ketu,Kosofe", "date": "2/15/18", "location": {"lat": 6.5825751, "lon": 3.3836573}}
{"address": "Military Zone Bus-Stop along Idmu Ajbeda,Alimosho", "date": "2/21/18", "location": {"lat": 6.58859, "lon": 3.287262}}
{"address": "Pedro Road by Pedro Police Station ,Shomolu", "date": "2/24/18", "location": {"lat": 6.5449037, "lon": 3.372159}}
{"address": "New Garage inward Oworo,Shomolu", "date": "2/25/18", "location": {"lat": 6.549563999999999, "lon": 3.4017556}}
{"address": "Ogudu Ifako inward Alapere,Ifako Ijaiye", "date": "2/21/18", "location": {"lat": 6.588236299999999, "lon": 3.3978098}}
{"address": "Ketu inward Ojota,Kosofe", "date": "2/21/18", "location": {"lat": 6.597497, "lon": 3.386115}}
{"address": "Tipper Ketu,Kosofe", "date": "2/21/18", "location": {"lat": 6.5960309, "lon": 3.3854333}}
{"address": "Carwash Oworo,Shomolu", "date": "2/22/18", "location": {"lat": 6.5608875, "lon": 3.3924908}}
{"address": "Iyana-Oworo Bus Stop,Kosofe", "date": "2/22/18", "location": {"lat": 6.555018899999999, "lon": 3.3962023}}
{"address": "3Iyana-Oworo Bustop,Kosofe", "date": "2/22/18", "location": {"lat": 6.555018899999999, "lon": 3.3962023}}
{"address": "Ado road inward Ajah,Eti Osa", "date": "2/20/18", "location": {"lat": 6.4786636, "lon": 3.5700715}}
{"address": "Maryland Bus-Stop in front of Shopping Mall,Ikeja", "date": "2/10/18", "location": {"lat": 6.5719793, "lon": 3.367272}}
{"address": "Dopemu b/s inward Iyana Ipaja,Agege", "date": "2/10/18", "location": {"lat": 6.6053337, "lon": 3.2792438}}
{"address": "Ijaiye - Meiran B/S inward Toll Gate,Ifako Ijaiye", "date": "2/9/18", "location": {"lat": 6.649243999999999, "lon": 3.2710745}}
{"address": "Coker Express Orile,Surulere", "date": "2/1/18", "location": {"lat": 6.478639599999999, "lon": 3.3336703}}
{"address": "Ijegun road inward Ikotun,Alimosho", "date": "2/9/18", "location": {"lat": 6.533214, "lon": 3.2598646}}
{"address": "Sabo Roundabout,Lagos Mainland", "date": "2/24/18", "location": {"lat": 6.505984499999999, "lon": 3.3776874}}
{"address": "Majidun Bridge,Ikorodu", "date": "2/23/18", "location": {"lat": 6.6195112, "lon": 3.4629867}}
{"address": "Majidun, inward Ikd,Ikorodu", "date": "2/24/18", "location": {"lat": 6.6150598, "lon": 3.4765747}}
{"address": "Itowolo,Ikorodu", "date": "2/25/18", "location": {"lat": 6.612437000000001, "lon": 3.441499}}
{"address": "Ikeja along Ile Zik,Ikeja", "date": "2/24/18", "location": {"lat": 6.602335, "lon": 3.33217}}
{"address": "Ahmadiyya B/Stop,Ifako Ijaiye", "date": "2/24/18", "location": {"lat": 6.6602118, "lon": 3.2918859}}
{"address": "3rd Mainland Bridge,Lagos Mainland", "date": "2/15/18", "location": {"lat": 6.4961142, "lon": 3.4001874}}
{"address": "Toyota bus-stop by 5 star,Oshodi Isolo", "date": "2/9/18", "location": {"lat": 6.537993999999999, "lon": 3.3370113}}
{"address": "Ilaje b/stop,Eti Osa", "date": "2/3/18", "location": {"lat": 6.465894, "lon": 3.561445}}
{"address": "Mile 2 B/S inward Mile 2,Amuwo Odofin", "date": "2/2/18", "location": {"lat": 6.462391999999999, "lon": 3.315932}}
{"address": "Sunny Bus-Stop Ojo,Ojo", "date": "2/24/18", "location": {"lat": 6.4601655, "lon": 3.1980776}}
{"address": "Lagos Ibadan Expressway by Mobil Filling Station,Ikeja", "date": "2/26/18", "location": {"lat": 6.623315499999999, "lon": 3.3645663}}
{"address": "Ojudu by Pako bus/stop,Kosofe", "date": "2/25/18", "location": {"lat": 6.571975999999999, "lon": 3.3970521}}
{"address": "Ikeja Underbridge inward ALausa,Ikeja", "date": "2/20/18", "location": {"lat": 6.59725, "lon": 3.34094}}
{"address": "Ijesha b/stop under the bridge,Surulere", "date": "2/20/18", "location": {"lat": 6.5028011, "lon": 3.3311114}}
{"address": "RTA Opposite Community Primary School, Idimu,Alimosho", "date": "2/20/18", "location": {"lat": 6.5743714, "lon": 3.2822858}}
{"address": "River Valley Estate,Ikeja", "date": "2/28/18", "location": {"lat": 6.646551, "lon": 3.370542}}
{"address": "Ogudu Estate inward Tollgate btw Ogudu & Alapere,Ikeja", "date": "2/28/18", "location": {"lat": 6.588236299999999, "lon": 3.3978098}}
{"address": "Obadore Bridge inward ,Alimosho", "date": "2/25/18", "location": {"lat": 6.536682099999999, "lon": 3.224251}}
{"address": "Fagba b/s inwrad Agege,Agege", "date": "2/25/18", "location": {"lat": 6.65764, "lon": 3.3244683}}
{"address": "Mangoro inward Oshodi,Agege", "date": "2/17/18", "location": {"lat": 6.607710099999999, "lon": 3.327806}}
{"address": "Latesf Agidinbi inward Alausa beside Mega Chicken,Ikeja", "date": "2/22/18", "location": {"lat": 6.6261427, "lon": 3.3535281}}
{"address": "Cement b/s by Ascon Filling Station,Agege", "date": "2/22/18", "location": {"lat": 6.6207557, "lon": 3.3295155}}
{"address": "Gbagada Inward Oshodi by Charley Boy b/stop,Shomolu", "date": "2/22/18", "location": {"lat": 6.5485326, "lon": 3.3795882}}
{"address": "Gbagada inward Oshodi by Charley Boy b/stop,Shomolu", "date": "2/22/18", "location": {"lat": 6.5485326, "lon": 3.3795882}}
{"address": "Gbagada inward Oshodi by Charley Boy b/stop,Shomolu", "date": "2/22/18", "location": {"lat": 6.5485326, "lon": 3.3795882}}
{"address": "Aboru Afolasi Road,Alimosho", "date": "2/22/18", "location": {"lat": 6.6174062, "lon": 3.2753282}}
{"address": "Afolasi Road Aboru,Alimosho", "date": "2/22/18", "location": {"lat": 6.6174062, "lon": 3.2753282}}
{"address": "Ikeja railway inward airport by National b/s,Ikeja", "date": "2/27/18", "location": {"lat": 6.5818185, "lon": 3.3211348}}
{"address": "Maryland Bus-Stop inward Ojota,Ikeja", "date": "2/26/18", "location": {"lat": 6.5876687, "lon": 3.3785258}}
{"address": "Stadium,Surulere", "date": "2/21/18", "location": {"lat": 6.4972384, "lon": 3.3650049}}
{"address": "NYC bus stop Igundo,Alimosho", "date": "2/18/18", "location": {"lat": 40.75091219999999, "lon": -73.977026}}
{"address": "Majidu Asolo inward Ikorodu,Ikorodu", "date": "2/23/18", "location": {"lat": 6.6195112, "lon": 3.4629867}}
{"address": "Bank Anthony way, Onigbongbo,Ikeja", "date": "2/27/18", "location": {"lat": 6.583845699999999, "lon": 3.3584446}}
{"address": "Harun b/s beside BRT Lane,Ikorodu", "date": "2/8/18", "location": {"lat": 6.636980100000001, "lon": 3.5420243}}
{"address": "Oba Adeyemi Str Igbogbo,Ikorodu", "date": "2/7/18", "location": {"lat": 6.6003032, "lon": 3.4936157}}
{"address": "Majidun by MMPC Filling Station,Ikorodu", "date": "2/10/18", "location": {"lat": 6.6195112, "lon": 3.4629867}}
{"address": "Ogolonto Inward Ikorodu,Ikorodu", "date": "2/5/18", "location": {"lat": 6.614609, "lon": 3.4733222}}
{"address": "Ogolonto Roundabout inward Agric,Ikorodu", "date": "2/11/18", "location": {"lat": 6.614609, "lon": 3.4733222}}
{"address": "3rd mainland Bridge,Lagos Mainland", "date": "2/13/18", "location": {"lat": 6.4961142, "lon": 3.4001874}}
{"address": "Evan;s Square along Yaba Road Malaolao/MacCuluce,Lagos Mainland", "date": "2/13/18", "location": {"lat": 6.493526, "lon": 3.3806705}}
{"address": "Ikoyi Bridge Inward Ikoyi,Eti Osa", "date": "2/13/18", "location": {"lat": 6.4501092, "lon": 3.4548965}}
{"address": "LASUTH 2nd Gate,Ikeja", "date": "2/27/18", "location": {"lat": 6.5903429, "lon": 3.3422758}}
{"address": "Adio junction outward Itamaga,Ikorodu", "date": "2/23/18", "location": {"lat": 6.6321593, "lon": 3.5353721}}
{"address": "Iyana Oworo on 3rd Mainland Bridge inward Toll Gate,Lagos Mainland", "date": "1/1/18", "location": {"lat": 6.4961142, "lon": 3.4001874}}
{"address": "Berger bus-stop inward Lagos,Ikeja", "date": "1/1/18", "location": {"lat": 6.639772199999999, "lon": 3.367996}}
{"address": "Shagasha inward Magodo,Kosofe", "date": "12/31/17", "location": {"lat": 6.6178643, "lon": 3.4000616}}
{"address": "3rd Mainland Bridge Iyana Orowo inward Toll Gate,Lagos Mainland", "date": "1/1/18", "location": {"lat": 6.4961142, "lon": 3.4001874}}
{"address": "3rd Mainland Bridge Iyana Orowo inward Toll Gate,Lagos Mainland", "date": "1/1/18", "location": {"lat": 6.4961142, "lon": 3.4001874}}
{"address": "3rd Mainland Bridge Iyana Orowo by Adeniji,Lagos Island", "date": "1/1/18", "location": {"lat": 6.501810799999999, "lon": 3.4020952}}
{"address": "Iyana Oworo by Fly Over,Kosofe", "date": "1/1/18", "location": {"lat": 6.555018899999999, "lon": 3.3962023}}
{"address": "Allen Roundabout,Ikeja", "date": "12/30/17", "location": {"lat": 6.6071622, "lon": 3.3491869}}
{"address": "Shala Road,Epe", "date": "1/5/18", "location": {"lat": 6.647519, "lon": 3.7494143}}
{"address": "Agric bus stop inward Ikorodu,Ikorodu", "date": "1/11/18", "location": {"lat": 6.625461199999999, "lon": 3.4839356}}
{"address": "Lucky Fibre by MRS F/Station,Ikorodu", "date": "1/11/18", "location": {"lat": 6.6413622, "lon": 3.5470082}}
{"address": "Itamaga inward Itogun Road,Ikorodu", "date": "1/14/18", "location": {"lat": 6.6321593, "lon": 3.5353721}}
{"address": "Majidun Ogolonto inward Ikorodu,Ikorodu", "date": "1/14/18", "location": {"lat": 6.6194972, "lon": 3.4744293}}
{"address": "Carwash b/stop along Idimu road infront of FEMB,Alimosho", "date": "1/6/18", "location": {"lat": 6.593227199999999, "lon": 3.2876331}}
{"address": "Ilasa b/stop inward Mile 2,Oshodi Isolo", "date": "1/6/18", "location": {"lat": 6.5224636, "lon": 3.3350587}}
{"address": "Ojota Bridge,Kosofe", "date": "1/5/18", "location": {"lat": 6.579534199999999, "lon": 3.3813509}}
{"address": "Motorways by Zenith Bank,Ikeja", "date": "1/5/18", "location": {"lat": 6.6000419, "lon": 3.3787626}}
{"address": "Ile-Epo Alhajti inward Idimu,Alimosho", "date": "1/3/18", "location": {"lat": 6.6350513, "lon": 3.3018154}}
{"address": "Abiola Garden inward Timisu Junction,Ikeja", "date": "12/31/17", "location": {"lat": 6.621069100000001, "lon": 3.3609354}}
{"address": "Elegushi road,Eti Osa", "date": "1/3/18", "location": {"lat": 6.428541099999999, "lon": 3.498931}}
{"address": "Oribanwa before Elemoro,Ibeju Lekki", "date": "1/10/18", "location": {"lat": 6.4712212, "lon": 3.7782214}}
{"address": "3rd Mainland Bridge,Lagos Mainland", "date": "1/27/18", "location": {"lat": 6.4961142, "lon": 3.4001874}}
{"address": "Before Eleranigbe Jua,Epe", "date": "1/8/18", "location": {"lat": 6.4813367, "lon": 3.8457272}}
{"address": "Bacle Busstop Iraye-Oke,Epe", "date": "1/9/18", "location": {"lat": 6.6042524, "lon": 3.99728}}
{"address": "Orile Bustop by Doyin,Surulere", "date": "1/15/18", "location": {"lat": 6.4793938, "lon": 3.3494206}}
{"address": "Ogunnusi road by Ojodu Berger,Ikeja", "date": "1/17/18", "location": {"lat": 6.639137499999999, "lon": 3.3595319}}
{"address": "New Rd b4 Chevron,Eti Osa", "date": "1/5/18", "location": {"lat": 6.4496778, "lon": 3.52605}}
{"address": "Bode Thomas by Barracks B/Stop intersection B/W Alaka and Adeniran Ogunsanya,Surulere", "date": "1/17/18", "location": {"lat": 6.4887958, "lon": 3.3508987}}
{"address": "Agric busstop ,Ikorodu", "date": "1/3/18", "location": {"lat": 6.625461199999999, "lon": 3.4839356}}
{"address": "Fola Hamed opp Mtel Office Oja Agric,Ikorodu", "date": "1/7/18", "location": {"lat": 6.625461199999999, "lon": 3.4839356}}
{"address": "Owode-Elede inward Mile-12,Kosofe", "date": "1/2/18", "location": {"lat": 6.601587599999999, "lon": 3.4040424}}
{"address": "Link bridge Coming from Civic Centre,Eti Osa", "date": "1/11/18", "location": {"lat": 6.4469574, "lon": 3.4604701}}
{"address": "Under Marine Bridge Outward Ajegunle Apapa,Apapa", "date": "1/11/18", "location": {"lat": 6.458706200000001, "lon": 3.3656843}}
{"address": "100 4 inward Ozumba Nbadikiwe,Eti Osa", "date": "1/11/18", "location": {"lat": 6.439996799999999, "lon": 3.4323141}}
{"address": "Costain b/stop inward National Theatre,Surulere", "date": "1/8/18", "location": {"lat": 6.476472999999999, "lon": 3.369542}}
{"address": "Otto bustop by Oyingbo,Lagos Mainland", "date": "1/24/18", "location": {"lat": 6.4800764, "lon": 3.3832669}}
{"address": "Btw Ijaiye and Meiran inward Abule-Egba,Ifako Ijaiye", "date": "1/18/18", "location": {"lat": 6.649243999999999, "lon": 3.2710745}}
{"address": "Oke Apa by Jakande Gate,Oshodi Isolo", "date": "1/18/18", "location": {"lat": 6.5301863, "lon": 3.3088796}}
{"address": "Agric b/stop, Isamo Road,Ikorodu", "date": "1/22/18", "location": {"lat": 6.625461199999999, "lon": 3.4839356}}
{"address": "Anjorin Street, Lawason,Surulere", "date": "12/21/17", "location": {"lat": 6.5096367, "lon": 3.3464814}}
{"address": "3rd Mainland Bridge,Lagos Island", "date": "1/10/18", "location": {"lat": 6.463219199999999, "lon": 3.3941065}}
{"address": "Ile Zik b/stop inward Oshodi,Ikeja", "date": "1/18/18", "location": {"lat": 6.602335, "lon": 3.33217}}
{"address": "Iponri,Surulere", "date": "1/24/18", "location": {"lat": 6.4851769, "lon": 3.3632507}}
{"address": "Ikota 2nd gate,Eti Osa", "date": "1/11/18", "location": {"lat": 6.4441397, "lon": 3.54211}}
{"address": "Alapere b/stop opp Corood inward 3rd Mainland Bridge,Kosofe", "date": "1/2/18", "location": {"lat": 6.588236299999999, "lon": 3.3978098}}
{"address": "Awolowo Way inward Alausa b4 Rade Market,Ikeja", "date": "1/6/18", "location": {"lat": 6.6181477, "lon": 3.3614075}}
{"address": "Lekki Phase C Bustop,Eti Osa", "date": "1/3/18", "location": {"lat": 6.431765299999999, "lon": 3.4749734}}
{"address": "Elepe b/stop Ijede Rd,Ikorodu", "date": "1/10/18", "location": {"lat": 6.6040592, "lon": 3.5032996}}
{"address": "Elepe b/stop inward Ijede,Ikorodu", "date": "1/8/18", "location": {"lat": 6.6040592, "lon": 3.5032996}}
{"address": "Majidu by BRT Lane,Ikorodu", "date": "1/15/18", "location": {"lat": 6.636980100000001, "lon": 3.5420243}}
{"address": "Mobil Filling Station, Ebule Rd,Ikorodu", "date": "1/13/18", "location": {"lat": 6.5810302, "lon": 3.5257624}}
{"address": "Apapa inward Agungi ,Eti Osa", "date": "1/14/18", "location": {"lat": 6.4471696, "lon": 3.5178536}}
{"address": "Chisco,Eti Osa", "date": "1/7/18", "location": {"lat": 6.434566999999999, "lon": 3.492087}}
{"address": "Medical Road Junction,Ikeja", "date": "1/1/18", "location": {"lat": 6.6071622, "lon": 3.3491869}}
{"address": "Palmgrove inward Inwama,Shomolu", "date": "1/12/18", "location": {"lat": 6.5409839, "lon": 3.3674149}}
{"address": "Flower bus/stop Odonguyan,Ikorodu", "date": "1/12/18", "location": {"lat": 6.662885999999999, "lon": 3.5211114}}
{"address": "Abesan Estate Keda b/stop,Alimosho", "date": "1/16/18", "location": {"lat": 6.608315300000001, "lon": 3.272845100000001}}
{"address": "Ajah b/stop ,Eti Osa", "date": "1/12/18", "location": {"lat": 6.465894, "lon": 3.561445}}
{"address": "Itire B/Stop outward Oshodi inward Ilasa,Surulere", "date": "1/16/18", "location": {"lat": 6.5224636, "lon": 3.3350587}}
{"address": "Dopemu underbridge inward Iyana-Ipaja,Agege", "date": "1/18/18", "location": {"lat": 6.6053337, "lon": 3.2792438}}
{"address": "Abule Taylor inward Abule Egba,Ifako Ijaiye", "date": "1/17/18", "location": {"lat": 6.65576, "lon": 3.294877}}
{"address": "Glover Rd Ikoyi,Eti Osa", "date": "1/15/18", "location": {"lat": 6.454019499999999, "lon": 3.4329675}}
{"address": "Owode Elede inward Mile 12,Kosofe", "date": "1/18/18", "location": {"lat": 6.601587599999999, "lon": 3.4040424}}
{"address": "Jibowu Estate,Lagos Mainland", "date": "1/16/18", "location": {"lat": 6.519500700000001, "lon": 3.369958}}
{"address": "Iju-Ishaga Road, Church B/Stop Sterling Bank,Ifako Ijaiye", "date": "1/13/18", "location": {"lat": 6.6523952, "lon": 3.323324}}
{"address": "Palmgrove inward ,Shomolu", "date": "1/12/18", "location": {"lat": 6.5409839, "lon": 3.3674149}}
{"address": "Ikeja along inward Oshodi,Ikeja", "date": "1/12/18", "location": {"lat": 6.59408, "lon": 3.33625}}
{"address": "Ikeja along inward Oshodi,Ikeja", "date": "1/12/18", "location": {"lat": 6.59408, "lon": 3.33625}}
{"address": "Agboju B/S Inward Alakije,Amuwo Odofin", "date": "1/12/18", "location": {"lat": 6.4596758, "lon": 3.2860923}}
{"address": "Chisco Bustopp,Eti Osa", "date": "1/21/18", "location": {"lat": 6.434566999999999, "lon": 3.492087}}
{"address": "Chisco Bustop,Eti Osa", "date": "1/21/18", "location": {"lat": 6.434566999999999, "lon": 3.492087}}
{"address": "Ilasan b/4 World Oil inward Ajah,Oshodi Isolo", "date": "1/22/18", "location": {"lat": 6.434515999999999, "lon": 3.493899}}
{"address": "Alakako inward Iyana Ipaja,Alimosho", "date": "1/11/18", "location": {"lat": 6.6052795, "lon": 3.278803}}
{"address": "Jakande R/Abt,Eti Osa", "date": "1/2/18", "location": {"lat": 6.463470699999999, "lon": 3.555718}}
{"address": "Matomal bus stop inward Oshodi,Mushin", "date": "1/8/18", "location": {"lat": 6.5224636, "lon": 3.3350587}}
{"address": "Anthony along ikorodu road inward ,Oshodi Isolo", "date": "1/9/18", "location": {"lat": 6.6186228, "lon": 3.4678922}}
{"address": "Fagba inward Idu Road,Ifako Ijaiye", "date": "1/15/18", "location": {"lat": 6.65764, "lon": 3.3244683}}
{"address": "Iyana Ipaja underbridge inward Oshodi,Alimosho", "date": "1/16/18", "location": {"lat": 6.6052795, "lon": 3.278803}}
{"address": "Cele b/stop inward Mile 2,Oshodi Isolo", "date": "1/12/18", "location": {"lat": 6.505908000000001, "lon": 3.3236003}}
{"address": "Ikeja along by the railway,Ikeja", "date": "1/16/18", "location": {"lat": 6.5946237, "lon": 3.3357856}}
{"address": "Iganmu Bridge ,Surulere", "date": "1/17/18", "location": {"lat": 6.474698000000001, "lon": 3.3640094}}
{"address": "Iganmu Bridge,Surulere", "date": "1/17/18", "location": {"lat": 6.474698000000001, "lon": 3.3640094}}
{"address": "Ikota 2nd Gate inward VGC,Eti Osa", "date": "1/16/18", "location": {"lat": 6.455305999999999, "lon": 3.555178}}
{"address": "3rd Mainland Bridge,Lagos Mainland", "date": "1/18/18", "location": {"lat": 6.4961142, "lon": 3.4001874}}
{"address": "1st Tollgate,Eti Osa", "date": "1/21/18", "location": {"lat": 6.4359204, "lon": 3.4472259}}
{"address": "Able Express Way inward Iyana Ipaja by Leola b/stop,Alimosho", "date": "1/16/18", "location": {"lat": 6.6053337, "lon": 3.2792438}}
{"address": "Chisco Bustop ,Eti Osa", "date": "1/21/18", "location": {"lat": 6.434566999999999, "lon": 3.492087}}
{"address": "Ikeja along inward Oshodi,Ikeja", "date": "1/9/18", "location": {"lat": 6.59408, "lon": 3.33625}}
{"address": "Agric b/stop,Ikorodu", "date": "1/17/18", "location": {"lat": 6.625461199999999, "lon": 3.4839356}}
{"address": "Law School b/stop,Eti Osa", "date": "1/1/18", "location": {"lat": 6.4389083, "lon": 3.4250844}}
{"address": "Idera b/stop behind BRT Terminal inward Ikd,Ikorodu", "date": "1/10/18", "location": {"lat": 6.6195129, "lon": 3.462825}}
{"address": "Pen Cinema inward Oshodi,Ikeja", "date": "1/16/18", "location": {"lat": 6.6294287, "lon": 3.3261754}}
{"address": "Costain,Lagos Mainland", "date": "1/12/18", "location": {"lat": 6.4830257, "lon": 3.3691311}}
{"address": "3rd Mainland Bridge outward Obalende,Lagos Mainland", "date": "1/2/18", "location": {"lat": 6.4961142, "lon": 3.4001874}}
{"address": "Ifako Ijaiye Roundabout,Ifako Ijaiye", "date": "1/11/18", "location": {"lat": 6.6827149, "lon": 3.3187418}}
{"address": "Oshodi Oke close to Terminal 2 ,Oshodi Isolo", "date": "1/28/18", "location": {"lat": 6.546922899999999, "lon": 3.2987097}}
{"address": "Oshodi underbridge close to terminal 2,Oshodi Isolo", "date": "1/28/18", "location": {"lat": 6.531492, "lon": 3.3359385}}
{"address": "Iyano Dopemu inward Iyana paja,Alimosho", "date": "1/29/18", "location": {"lat": 6.6052795, "lon": 3.278803}}
{"address": "Isheri b/stop Lasu-Igando road,Alimosho", "date": "1/28/18", "location": {"lat": 6.552613999999999, "lon": 3.242599}}
{"address": "Alapere Estate by MRS Filling Station,Kosofe", "date": "1/19/18", "location": {"lat": 6.588236299999999, "lon": 3.3978098}}
{"address": "Isaac John, GRA,Ikeja", "date": "1/24/18", "location": {"lat": 6.5803151, "lon": 3.358832}}
{"address": "Gbagada inward Oshodi by Charlie boy,Kosofe", "date": "2/25/18", "location": {"lat": 6.5485326, "lon": 3.3795882}}
{"address": "Outward Palmgrove inward Abanikoro,Shomolu", "date": "1/25/18", "location": {"lat": 6.5409839, "lon": 3.3674149}}
{"address": "Gbagada B/Stop,Shomolu", "date": "1/25/18", "location": {"lat": 6.549335000000001, "lon": 3.388231}}
{"address": "Gbagada Bus/Stop,Shomolu", "date": "1/25/18", "location": {"lat": 6.548821, "lon": 3.388359}}
{"address": "Gbagada B/stop,Shomolu", "date": "1/25/18", "location": {"lat": 6.549335000000001, "lon": 3.388231}}
{"address": "Gbagada B/Stop,Shomolu", "date": "1/25/18", "location": {"lat": 6.549335000000001, "lon": 3.388231}}
{"address": "Iyana Dopemu underbridge out Iyana Ipaja,Ikeja", "date": "1/19/18", "location": {"lat": 6.6053337, "lon": 3.2792438}}
{"address": "Iyana Dopemu under bridge out Iyana Ipaja,Ikeja", "date": "1/19/18", "location": {"lat": 6.6085578, "lon": 3.3094077}}
{"address": "Moshalashi B/Stop, Agege motor Road,Agege", "date": "1/19/18", "location": {"lat": 6.6143458, "lon": 3.3280127}}
{"address": "Toll Gate by Abiola Garden,Kosofe", "date": "1/26/18", "location": {"lat": 6.435820199999999, "lon": 3.4471546}}
{"address": "Ikeja Underbridge by TCO Bank,Ikeja", "date": "1/23/18", "location": {"lat": 6.59725, "lon": 3.34094}}
{"address": "River Valley Estate New Garage Berg ,Ikeja", "date": "1/12/18", "location": {"lat": 6.646551, "lon": 3.370542}}
{"address": "Dopemu Under Bridge in Iyana Ipaja,Agege", "date": "1/28/18", "location": {"lat": 6.6085578, "lon": 3.3094077}}
{"address": "Sandfield,Ibeju Lekki", "date": "1/29/18", "location": {"lat": 6.4231903, "lon": 4.077922}}
{"address": "Ikeja along inward Iyana Ipaja,Ikeja", "date": "1/20/18", "location": {"lat": 6.6053337, "lon": 3.2792438}}
{"address": "Lonlo b/s Fagba,Ifako Ijaiye", "date": "1/24/18", "location": {"lat": 6.661554499999999, "lon": 3.323155}}
{"address": "Eloro Rd inward Ajasa Common Rd,Alimosho", "date": "1/20/18", "location": {"lat": 6.666402, "lon": 3.2488177}}
{"address": "Opposite Car PAck Ikotun LGA,Alimosho", "date": "1/21/18", "location": {"lat": 6.549693899999999, "lon": 3.2699541}}
{"address": "Ikosi Rd by CAC Church ,Kosofe", "date": "1/24/18", "location": {"lat": 6.611858499999999, "lon": 3.3742565}}
{"address": "Sandfield,Ibeju Lekki", "date": "1/29/18", "location": {"lat": 6.4231903, "lon": 4.077922}}
{"address": "GSM b/stop along Itoikin road,Epe", "date": "1/29/18", "location": {"lat": 6.6382514, "lon": 3.8645533}}
{"address": "Sandfield,Ibeju Lekki", "date": "1/29/18", "location": {"lat": 6.4231903, "lon": 4.077922}}
{"address": "Adeniji inward Iyana-Oworo,Eti Osa", "date": "1/3/18", "location": {"lat": 6.555018899999999, "lon": 3.3962023}}
{"address": "Ikoyi road by Ikoyi Ajah,Ikeja", "date": "1/28/18", "location": {"lat": 6.4517646, "lon": 3.4135565}}
{"address": "Ikeja along inward Ojota,Surulere", "date": "1/3/18", "location": {"lat": 6.59408, "lon": 3.33625}}
{"address": "Apapa Rd, Rainbow inward Festac,Amuwo Odofin", "date": "1/30/18", "location": {"lat": 6.4659217, "lon": 3.3640333}}
{"address": "Agboju B/S inward Alakija,Amuwo Odofin", "date": "1/30/18", "location": {"lat": 6.4596758, "lon": 3.2860923}}
{"address": "Opposite Secretariat Alausa inward Sharonle,Ikeja", "date": "1/30/18", "location": {"lat": 6.6169196, "lon": 3.3645929}}
{"address": "Honey well,Ikeja", "date": "1/31/18", "location": {"lat": 6.6123636, "lon": 3.3672753}}
{"address": "Abiola Gardens inward Alapere,Kosofe", "date": "1/27/18", "location": {"lat": 6.5944389, "lon": 3.3983859}}
{"address": "Ojubode b/stop infront of SS,Ikorodu", "date": "1/29/18", "location": {"lat": 6.618519999999999, "lon": 3.50313}}
{"address": "Adekunle Police Station,Lagos Mainland", "date": "1/27/18", "location": {"lat": 6.4951015, "lon": 3.3811553}}
{"address": "Adeniji inawrd Iyana-Oworo,Lagos Island", "date": "1/31/18", "location": {"lat": 6.555018899999999, "lon": 3.3962023}}
{"address": "Ijora inward Marine Bridge,Lagos Island", "date": "1/27/18", "location": {"lat": 6.458706200000001, "lon": 3.3656843}}
{"address": "Obalende Bus Stop,Lagos Island", "date": "1/26/18", "location": {"lat": 6.4515869, "lon": 3.408224}}
{"address": "3rd Mainland Bridge,Lagos Mainland", "date": "1/24/18", "location": {"lat": 6.4961142, "lon": 3.4001874}}
{"address": "Toyin Street Orile Iganmu,Apapa", "date": "1/27/18", "location": {"lat": 6.5961249, "lon": 3.3510551}}
{"address": "Ojuelegba bridge inward Fadeyi,Surulere", "date": "1/27/18", "location": {"lat": 6.5099974, "lon": 3.3650011}}
{"address": "Ikorodu Rd Obanikoro inward Palmgrove,Mushin", "date": "1/3/18", "location": {"lat": 6.553462000000001, "lon": 3.3671225}}
{"address": "Lagos Ibadan exp. Mobil Filling Station inward Berger,Ikeja", "date": "1/31/18", "location": {"lat": 6.616021, "lon": 3.3660886}}
{"address": "Ijesa inward Oshodi,Surulere", "date": "1/31/18", "location": {"lat": 6.5028011, "lon": 3.3311114}}
{"address": "Pen Cinema Market going towards Ogba,Agege", "date": "1/31/18", "location": {"lat": 6.6294287, "lon": 3.3261754}}
{"address": "Grosevy Plaza Lasu-Isueri Road,Alimosho", "date": "1/31/18", "location": {"lat": 6.5498463, "lon": 3.238678600000001}}
{"address": "Abule Ado inward Mile 2,Amuwo Odofin", "date": "1/29/18", "location": {"lat": 6.456275, "lon": 3.2562178}}
{"address": "Ikosi Rd by Local govt. office,Kosofe", "date": "1/27/18", "location": {"lat": 6.5999273, "lon": 3.3832098}}
{"address": "Mko Abiola Garden inward Tollgatw,Kosofe", "date": "1/27/18", "location": {"lat": 6.5917075, "lon": 3.3836959}}
{"address": "Federal Junction inward Ipaja,Alimosho", "date": "1/30/18", "location": {"lat": 6.605147, "lon": 3.276012}}
{"address": "By Agege Stadium,Agege", "date": "1/29/18", "location": {"lat": 6.623741799999999, "lon": 3.3301587}}
{"address": "Charity busstop inward Airport,Oshodi Isolo", "date": "1/30/18", "location": {"lat": 6.531492, "lon": 3.3359385}}
{"address": "Ayetiro bus stop along Yanilain, before Iyana Era bus stop,Ojo", "date": "12/16/17", "location": {"lat": 6.4806816, "lon": 3.143025}}
{"address": "BRT Lane Ogolonto inward Ikorodu,Ikorodu", "date": "12/19/17", "location": {"lat": 6.6153083, "lon": 3.4445163}}
{"address": "Adamson Ile Epo busstop inward Lasu Igumoto,Alimosho", "date": "12/1/17", "location": {"lat": 6.6350513, "lon": 3.3018154}}
{"address": "Ballet B/Stop inward Cele,Oshodi Isolo", "date": "12/1/17", "location": {"lat": 6.505908000000001, "lon": 3.3236003}}
{"address": "Agbe Road, Abule Egba,Ifako Ijaiye", "date": "12/2/17", "location": {"lat": 6.6588972, "lon": 3.3018169}}
{"address": "P2 Road Inward Oshodi Underbridge,Oshodi Isolo", "date": "12/6/17", "location": {"lat": 6.549804, "lon": 3.333744}}
{"address": "Ladipo b/stop inward Oshodi,Oshodi Isolo", "date": "12/16/17", "location": {"lat": 6.5383403, "lon": 3.3459573}}
{"address": "Fagba Junction inward Ishaga,Ifako Ijaiye", "date": "12/12/17", "location": {"lat": 6.65764, "lon": 3.3244683}}
{"address": "Allen Junction close to Alade Market,Ikeja", "date": "12/6/17", "location": {"lat": 6.606655, "lon": 3.3487219}}
{"address": "Charley Boy inward Oshodi,Shomolu", "date": "12/12/17", "location": {"lat": 6.5485326, "lon": 3.3795882}}
{"address": "Agric b/stop outward trade fair,Ojo", "date": "12/9/17", "location": {"lat": 6.464684099999999, "lon": 3.2377972}}
{"address": "Oshodi Expressway close to Charity b/s,Oshodi Isolo", "date": "12/16/17", "location": {"lat": 6.502554399999999, "lon": 3.3228477}}
{"address": "Stadium Underbridge inward Island,Surulere", "date": "12/3/17", "location": {"lat": 6.4972384, "lon": 3.3650049}}
{"address": "Ikotun college bus stop Onilewura,Alimosho", "date": "12/16/17", "location": {"lat": 6.5517971, "lon": 3.2765648}}
{"address": "New Road b/stop inward Jakande,Eti Osa", "date": "12/2/17", "location": {"lat": 6.463470699999999, "lon": 3.555718}}
{"address": "Beesam, MM2,Ikeja", "date": "12/17/17", "location": {"lat": 6.5697088, "lon": 3.3317046}}
{"address": "In front of Yem Kem Plaza, Abule Odu Inward,Alimosho", "date": "12/13/17", "location": {"lat": 6.584708, "lon": 3.2835924}}
{"address": "Agege Motor Rd by Capitol Coming from Abule Egba,Agege", "date": "12/8/17", "location": {"lat": 6.571651, "lon": 3.3452731}}
{"address": "Tejuosho Market Yaba,Lagos Mainland", "date": "12/4/17", "location": {"lat": 6.5063837, "lon": 3.3675767}}
{"address": "UAC Ojota inward Oregun,Ikeja", "date": "12/9/17", "location": {"lat": 6.579534199999999, "lon": 3.3813509}}
{"address": "Ogolonto, Ikorodu,Ikorodu", "date": "12/18/17", "location": {"lat": 6.614609, "lon": 3.4733222}}
{"address": "Ojota Tipper Garage,Kosofe", "date": "12/3/17", "location": {"lat": 6.589321099999999, "lon": 3.3774339}}
{"address": "Jakande R/A ,Eti Osa", "date": "12/15/17", "location": {"lat": 6.463470699999999, "lon": 3.555718}}
{"address": "Iyana Ipaja inward Alagunta,Alimosho", "date": "12/17/17", "location": {"lat": 6.6052795, "lon": 3.278803}}
{"address": "Pako Bstop coming from Ikeja inward Iyana Ipaja,Agege", "date": "12/17/17", "location": {"lat": 6.6053337, "lon": 3.2792438}}
{"address": "Along Ilupeju Rd opp Fam Planning outward Oshodi,Mushin", "date": "12/16/17", "location": {"lat": 6.5399995, "lon": 3.3595799}}
{"address": "Oriwu Model College ,Ikorodu", "date": "12/26/17", "location": {"lat": 6.6003032, "lon": 3.4936157}}
{"address": "Agidingbi Cadbury Road ,Ikeja", "date": "12/10/17", "location": {"lat": 6.622509099999999, "lon": 3.3508565}}
{"address": "Owode - Elede ,Ikorodu", "date": "12/15/17", "location": {"lat": 6.601587599999999, "lon": 3.4040424}}
{"address": "Owode Onirin,Kosofe", "date": "12/3/17", "location": {"lat": 6.610871599999999, "lon": 3.411482}}
{"address": "Agric b/stop inward Ikd,Ikorodu", "date": "12/2/17", "location": {"lat": 6.625461199999999, "lon": 3.4839356}}
{"address": "Mile 12 under bridge inward Ikorodu,Kosofe", "date": "12/2/17", "location": {"lat": 6.6055663, "lon": 3.400014}}
{"address": "Ogolonto b/stop,Ikorodu", "date": "12/6/17", "location": {"lat": 6.614609, "lon": 3.4733222}}
{"address": "Ikorodu Rd by Asolo B/stop,Ikorodu", "date": "12/5/17", "location": {"lat": 6.625461199999999, "lon": 3.4839356}}
{"address": "Majidun Bridge inward Ajegunle,Ikorodu", "date": "12/3/17", "location": {"lat": 6.6195112, "lon": 3.4629867}}
{"address": "Owode inwrd Ikorodu,Kosofe", "date": "12/22/17", "location": {"lat": 6.610871599999999, "lon": 3.411482}}
{"address": "U-turn b/stop outward Abule Egba,Ifako Ijaiye", "date": "12/12/17", "location": {"lat": 6.6537646, "lon": 3.2979745}}
{"address": "Costain by the Roundabout,Surulere", "date": "12/31/17", "location": {"lat": 6.4830257, "lon": 3.3691311}}
{"address": "Lonto B/stop, Iju-Ishaya,Ifako Ijaiye", "date": "12/30/17", "location": {"lat": 6.642932, "lon": 3.3233843}}
{"address": "Akesan Fumetun inward Iba ,Alimosho", "date": "12/30/17", "location": {"lat": 6.547525299999999, "lon": 3.2325278}}
{"address": "Adeniyi Jones Junction Ikeja close to First Lane,Ikeja", "date": "12/30/17", "location": {"lat": 6.6047959, "lon": 3.3371491}}
{"address": "Agric b/stop,Ikorodu", "date": "12/3/17", "location": {"lat": 6.625461199999999, "lon": 3.4839356}}
{"address": "Alapere Ketu inward Ikorodu,Kosofe", "date": "12/1/17", "location": {"lat": 6.588236299999999, "lon": 3.3978098}}
{"address": "Laspotech, Ikorodu,Ikorodu", "date": "12/17/17", "location": {"lat": 6.647247800000001, "lon": 3.515227}}
{"address": "Ikeja Along inward Iyana-Ipaja,Ikeja", "date": "12/15/17", "location": {"lat": 6.6053337, "lon": 3.2792438}}
{"address": "Iyana-Ipaja Underbridge inward Agege,Agege", "date": "12/16/17", "location": {"lat": 6.6181358, "lon": 3.2991171}}
{"address": "Meiran b/stop inward Abule Egba,Alimosho", "date": "12/12/17", "location": {"lat": 6.649243999999999, "lon": 3.2710745}}
{"address": "College road inward Fagba by Oyemaku b/stop,Ifako Ijaiye", "date": "12/12/17", "location": {"lat": 6.6412197, "lon": 3.3305839}}
{"address": "Ransome Kuti, Jibowu,Mushin", "date": "12/8/17", "location": {"lat": 6.5194912, "lon": 3.3669756}}
{"address": "Oluwanisola Eleganza,Eti Osa", "date": "12/3/17", "location": {"lat": 6.447073700000001, "lon": 3.5438727}}
{"address": "Ikate inward Ajah,Eti Osa", "date": "12/2/17", "location": {"lat": 6.4329553, "lon": 3.4821678}}
{"address": "Osborne Rd, descending from Mainland,Lagos Island", "date": "12/2/17", "location": {"lat": 6.462900599999999, "lon": 3.418825}}
{"address": "Osapa London inward Chevron,Eti Osa", "date": "12/1/17", "location": {"lat": 6.466666, "lon": 3.566667}}
{"address": "2nd Roundabout Lekki,Eti Osa", "date": "12/2/17", "location": {"lat": 6.431031, "lon": 3.46988}}
{"address": "Mangoro inward Dopemu,Agege", "date": "12/19/17", "location": {"lat": 6.607710099999999, "lon": 3.327806}}
{"address": "Corner road Sabo by WABC bus stop yabe opp Yabatech,Lagos Mainland", "date": "12/19/17", "location": {"lat": 6.617241399999999, "lon": 3.3200368}}
{"address": "Nicholas b/stop Kola rd,Ifako Ijaiye", "date": "12/30/17", "location": {"lat": 6.673869499999999, "lon": 3.2895046}}
{"address": "Between Cele and Odo-Olowu inward Mile 2,Oshodi Isolo", "date": "12/4/17", "location": {"lat": 6.4981332, "lon": 3.323775}}
{"address": "Oworo b/s coming from Oshodi,Shomolu", "date": "12/5/17", "location": {"lat": 6.549563999999999, "lon": 3.4017556}}
{"address": "Obalende Bustop inward Island,Lagos Island", "date": "12/3/17", "location": {"lat": 6.4515869, "lon": 3.408224}}
{"address": "Lagos Abeokuta Xpressway after Iyana Ipaja Bridge,Agege", "date": "12/2/17", "location": {"lat": 6.621014799999999, "lon": 3.2997262}}
{"address": "Agric bus-stop by BRT Terminis,Ikorodu", "date": "12/23/17", "location": {"lat": 6.625461199999999, "lon": 3.4839356}}
{"address": "Chisco b/stop, Lekki,Eti Osa", "date": "12/16/17", "location": {"lat": 6.434566999999999, "lon": 3.492087}}
{"address": "Chisco b/stop, Lekki,Eti Osa", "date": "12/16/17", "location": {"lat": 6.434566999999999, "lon": 3.492087}}
{"address": "Jakande Intervention,Eti Osa", "date": "12/16/17", "location": {"lat": 6.431690199999999, "lon": 3.4532892}}
{"address": "Chisco b/stop, Lekki,Eti Osa", "date": "12/16/17", "location": {"lat": 6.434566999999999, "lon": 3.492087}}
{"address": "Apongbon bridge inward Costain,Lagos Island", "date": "12/14/17", "location": {"lat": 6.4595389, "lon": 3.3826433}}
{"address": "Ikota 1st gate,Eti Osa", "date": "12/12/17", "location": {"lat": 6.452116, "lon": 3.554587}}
{"address": "Jakande Circle more,Eti Osa", "date": "12/10/17", "location": {"lat": 6.431690199999999, "lon": 3.4532892}}
{"address": "Ilaje Bustop,Eti Osa", "date": "12/12/17", "location": {"lat": 6.465894, "lon": 3.561445}}
{"address": "Along Ajah 2nd gate by Oando Station,Eti Osa", "date": "12/14/17", "location": {"lat": 6.4333139, "lon": 3.4912377}}
{"address": "Ikate roundabout,Eti Osa", "date": "12/13/17", "location": {"lat": 6.4329553, "lon": 3.4821678}}
{"address": "Ikate roundabout,Eti Osa", "date": "12/11/17", "location": {"lat": 6.4329553, "lon": 3.4821678}}
{"address": "Secretariat b/stop inward Berger,Ikeja", "date": "12/24/17", "location": {"lat": 6.6169196, "lon": 3.3645929}}
{"address": "3rd Mainland Bridge Obalende Junction,Lagos Island", "date": "12/17/17", "location": {"lat": 6.450355500000001, "lon": 3.4105171}}
{"address": "Vono bstop by Slabeju Str,Mushin", "date": "12/20/17", "location": {"lat": 6.5388436, "lon": 3.356198}}
{"address": "Lekki Toll Gate,Eti Osa", "date": "12/16/17", "location": {"lat": 6.435820199999999, "lon": 3.4471546}}
{"address": "New Road b/4 Igbo Tefon,Eti Osa", "date": "12/7/17", "location": {"lat": 6.4301409, "lon": 3.5246271}}
{"address": "Agungi Bustop,Eti Osa", "date": "12/9/17", "location": {"lat": 6.438039, "lon": 3.516639}}
{"address": "2nd Toll Gate,Eti Osa", "date": "12/9/17", "location": {"lat": 6.444569, "lon": 3.540041}}
{"address": "Ile-Zik inward ,Ikeja", "date": "12/13/17", "location": {"lat": 6.602335, "lon": 3.33217}}
{"address": "2nd Rainbow inward,Oshodi Isolo", "date": "12/9/17", "location": {"lat": 6.4700486, "lon": 3.3226615}}
{"address": "Ilaje B/stop before VGC, Ajalu,Eti Osa", "date": "12/4/17", "location": {"lat": 6.465894, "lon": 3.561445}}
{"address": "Nitel Junction Admiralty Way Lekki,Eti Osa", "date": "12/5/17", "location": {"lat": 6.447506700000001, "lon": 3.4670381}}
{"address": "Iyana Oworo,Lagos Mainland", "date": "12/18/17", "location": {"lat": 6.546217, "lon": 3.3980625}}
{"address": "Ewedogbon Vulcanizer b/stop Igandi Lasu Igan Road,Alimosho", "date": "12/14/17", "location": {"lat": 6.5161212, "lon": 3.2539701}}
{"address": "Laspotech bus stop ,Ikorodu", "date": "12/3/17", "location": {"lat": 6.625461199999999, "lon": 3.4839356}}
{"address": "Ile-Zik inward Ikeja,Agege", "date": "12/13/17", "location": {"lat": 6.602335, "lon": 3.33217}}
{"address": "Sanya B/Stop inward Oshodi,Surulere", "date": "12/10/17", "location": {"lat": 6.4874889, "lon": 3.3250004}}
{"address": "Osborne inward Ikoyi by the traffic light,Eti Osa", "date": "12/18/17", "location": {"lat": 6.462900599999999, "lon": 3.418825}}
{"address": "Abule Odu b/stop Ikotun Idumu Rd inward Idimu,Alimosho", "date": "12/19/17", "location": {"lat": 6.5873364, "lon": 3.2860588}}
{"address": "Onipanu inward Fadeyi,Shomolu", "date": "12/15/17", "location": {"lat": 6.532775, "lon": 3.367241}}
{"address": "Oladipo b/s by Oyegun st,Oshodi Isolo", "date": "12/7/17", "location": {"lat": 6.5580937, "lon": 3.3263678}}
{"address": "Abule bus-stop,Ifako Ijaiye", "date": "12/7/17", "location": {"lat": 6.65576, "lon": 3.294877}}
